[
  {
    "DoctorID":1,
    "Name":"Alex Martin",
    "Clinic":"Martin Psychiatric Services",
    "Address":"548 Oak St, Phoenix, AZ 85001",
    "City":"Phoenix",
    "State":"AZ",
    "ZIP":"85001",
    "Email":"alex.martin@example.com",
    "Phone":"(480) 506-5653",
    "Specialties":"Bipolar Disorder",
    "Languages":"Spanish",
    "Rating":4.5,
    "latitude":33.388001,
    "longitude":-112.046698
  },
  {
    "DoctorID":2,
    "Name":"Reagan Hernandez",
    "Clinic":"Hernandez Psychiatric Services",
    "Address":"272 Oak St, Mesa, AZ 85201",
    "City":"Mesa",
    "State":"AZ",
    "ZIP":"85201",
    "Email":"reagan.hernandez@example.com",
    "Phone":"(480) 340-6817",
    "Specialties":"ADHD",
    "Languages":"Chinese",
    "Rating":4.4,
    "latitude":33.382043,
    "longitude":-111.762959
  },
  {
    "DoctorID":3,
    "Name":"Peyton Martinez",
    "Clinic":"Martinez Mental Health Clinic",
    "Address":"558 Main St, Tempe, AZ 85282",
    "City":"Tempe",
    "State":"AZ",
    "ZIP":"85282",
    "Email":"peyton.martinez@example.com",
    "Phone":"(480) 936-5140",
    "Specialties":"Autism Spectrum Disorder",
    "Languages":"Chinese, Hindi",
    "Rating":4.4,
    "latitude":33.469749,
    "longitude":-111.931084
  },
  {
    "DoctorID":4,
    "Name":"Casey Williams",
    "Clinic":"Williams Wellness Center",
    "Address":"705 Elm St, Phoenix, AZ 85008",
    "City":"Phoenix",
    "State":"AZ",
    "ZIP":"85008",
    "Email":"casey.williams@example.com",
    "Phone":"(480) 948-8603",
    "Specialties":"Depression",
    "Languages":"Hindi",
    "Rating":4.6,
    "latitude":33.403819,
    "longitude":-112.054929
  },
  {
    "DoctorID":5,
    "Name":"Harper Rodriguez",
    "Clinic":"Rodriguez Mental Health Clinic",
    "Address":"867 Willow Dr, Glendale, AZ 85303",
    "City":"Glendale",
    "State":"AZ",
    "ZIP":"85303",
    "Email":"harper.rodriguez@example.com",
    "Phone":"(480) 406-5955",
    "Specialties":"Bipolar Disorder, ADHD",
    "Languages":"Spanish",
    "Rating":4.0,
    "latitude":33.528997,
    "longitude":-112.248565
  },
  {
    "DoctorID":6,
    "Name":"Devon Smith",
    "Clinic":"Smith Therapy Group",
    "Address":"759 Willow Dr, Glendale, AZ 85302",
    "City":"Glendale",
    "State":"AZ",
    "ZIP":"85302",
    "Email":"devon.smith@example.com",
    "Phone":"(480) 943-2346",
    "Specialties":"Eating Disorders",
    "Languages":"English, Spanish",
    "Rating":4.2,
    "latitude":33.569535,
    "longitude":-112.13884
  },
  {
    "DoctorID":7,
    "Name":"Drew Jackson",
    "Clinic":"Jackson Therapy Group",
    "Address":"624 Maple Ave, Mesa, AZ 85201",
    "City":"Mesa",
    "State":"AZ",
    "ZIP":"85201",
    "Email":"drew.jackson@example.com",
    "Phone":"(480) 918-2475",
    "Specialties":"Substance Abuse, Autism Spectrum Disorder",
    "Languages":"Chinese",
    "Rating":4.8,
    "latitude":33.412095,
    "longitude":-111.885587
  },
  {
    "DoctorID":8,
    "Name":"Blake White",
    "Clinic":"White Wellness Center",
    "Address":"787 Willow Dr, Tempe, AZ 85282",
    "City":"Tempe",
    "State":"AZ",
    "ZIP":"85282",
    "Email":"blake.white@example.com",
    "Phone":"(480) 408-7417",
    "Specialties":"Substance Abuse, Schizophrenia",
    "Languages":"Hindi, Chinese",
    "Rating":5.0,
    "latitude":33.464725,
    "longitude":-111.906522
  },
  {
    "DoctorID":9,
    "Name":"Reese Taylor",
    "Clinic":"Taylor Mental Health Clinic",
    "Address":"640 Main St, Phoenix, AZ 85006",
    "City":"Phoenix",
    "State":"AZ",
    "ZIP":"85006",
    "Email":"reese.taylor@example.com",
    "Phone":"(480) 704-6398",
    "Specialties":"Depression",
    "Languages":"Hindi, Spanish",
    "Rating":4.3,
    "latitude":33.456661,
    "longitude":-111.960503
  },
  {
    "DoctorID":10,
    "Name":"Taylor Thomas",
    "Clinic":"Thomas Therapy Group",
    "Address":"335 Cedar Dr, Tempe, AZ 85281",
    "City":"Tempe",
    "State":"AZ",
    "ZIP":"85281",
    "Email":"taylor.thomas@example.com",
    "Phone":"(480) 511-8527",
    "Specialties":"Substance Abuse",
    "Languages":"Hindi, English",
    "Rating":5.0,
    "latitude":33.394244,
    "longitude":-111.933952
  },
  {
    "DoctorID":11,
    "Name":"Harper Davis",
    "Clinic":"Davis Therapy Group",
    "Address":"867 Maple Ave, Mesa, AZ 85202",
    "City":"Mesa",
    "State":"AZ",
    "ZIP":"85202",
    "Email":"harper.davis@example.com",
    "Phone":"(480) 837-9577",
    "Specialties":"Bipolar Disorder",
    "Languages":"Chinese",
    "Rating":4.8,
    "latitude":33.355924,
    "longitude":-111.893338
  },
  {
    "DoctorID":12,
    "Name":"Riley Smith",
    "Clinic":"Smith Therapy Group",
    "Address":"501 Elm St, Mesa, AZ 85203",
    "City":"Mesa",
    "State":"AZ",
    "ZIP":"85203",
    "Email":"riley.smith@example.com",
    "Phone":"(480) 543-2373",
    "Specialties":"PTSD, OCD",
    "Languages":"French",
    "Rating":3.8,
    "latitude":33.352789,
    "longitude":-111.855159
  },
  {
    "DoctorID":13,
    "Name":"Blake Taylor",
    "Clinic":"Taylor Psychiatric Services",
    "Address":"316 Cedar Dr, Phoenix, AZ 85009",
    "City":"Phoenix",
    "State":"AZ",
    "ZIP":"85009",
    "Email":"blake.taylor@example.com",
    "Phone":"(480) 224-3044",
    "Specialties":"ADHD, Eating Disorders",
    "Languages":"English, Chinese",
    "Rating":4.9,
    "latitude":33.312461,
    "longitude":-112.16457
  },
  {
    "DoctorID":14,
    "Name":"Casey Anderson",
    "Clinic":"Anderson Psychiatric Services",
    "Address":"138 Maple Ave, Mesa, AZ 85203",
    "City":"Mesa",
    "State":"AZ",
    "ZIP":"85203",
    "Email":"casey.anderson@example.com",
    "Phone":"(480) 343-4951",
    "Specialties":"Bipolar Disorder",
    "Languages":"Hindi, Chinese",
    "Rating":4.7,
    "latitude":33.430157,
    "longitude":-111.883263
  },
  {
    "DoctorID":15,
    "Name":"Devon Williams",
    "Clinic":"Williams Psychiatric Services",
    "Address":"536 Walnut St, Mesa, AZ 85203",
    "City":"Mesa",
    "State":"AZ",
    "ZIP":"85203",
    "Email":"devon.williams@example.com",
    "Phone":"(480) 349-2486",
    "Specialties":"Schizophrenia",
    "Languages":"Spanish",
    "Rating":3.9,
    "latitude":33.421403,
    "longitude":-111.801179
  },
  {
    "DoctorID":16,
    "Name":"Peyton White",
    "Clinic":"White Wellness Center",
    "Address":"626 Walnut St, Glendale, AZ 85303",
    "City":"Glendale",
    "State":"AZ",
    "ZIP":"85303",
    "Email":"peyton.white@example.com",
    "Phone":"(480) 626-6776",
    "Specialties":"Autism Spectrum Disorder",
    "Languages":"French, Spanish",
    "Rating":4.1,
    "latitude":33.565506,
    "longitude":-112.199851
  },
  {
    "DoctorID":17,
    "Name":"Blake Jones",
    "Clinic":"Jones Mental Health Clinic",
    "Address":"830 Birch Rd, Tempe, AZ 85281",
    "City":"Tempe",
    "State":"AZ",
    "ZIP":"85281",
    "Email":"blake.jones@example.com",
    "Phone":"(480) 662-1877",
    "Specialties":"Autism Spectrum Disorder, Substance Abuse",
    "Languages":"Chinese, French",
    "Rating":4.6,
    "latitude":33.388901,
    "longitude":-111.97544
  },
  {
    "DoctorID":18,
    "Name":"Drew Hernandez",
    "Clinic":"Hernandez Wellness Center",
    "Address":"660 Elm St, Glendale, AZ 85303",
    "City":"Glendale",
    "State":"AZ",
    "ZIP":"85303",
    "Email":"drew.hernandez@example.com",
    "Phone":"(480) 933-4520",
    "Specialties":"ADHD, Bipolar Disorder",
    "Languages":"Hindi, Chinese",
    "Rating":4.3,
    "latitude":33.560569,
    "longitude":-112.240216
  },
  {
    "DoctorID":19,
    "Name":"Quinn Anderson",
    "Clinic":"Anderson Mental Health Clinic",
    "Address":"479 Spruce Ln, Phoenix, AZ 85004",
    "City":"Phoenix",
    "State":"AZ",
    "ZIP":"85004",
    "Email":"quinn.anderson@example.com",
    "Phone":"(480) 476-3144",
    "Specialties":"Substance Abuse, OCD",
    "Languages":"French, Spanish",
    "Rating":4.9,
    "latitude":33.372964,
    "longitude":-111.942605
  },
  {
    "DoctorID":20,
    "Name":"Devon Williams",
    "Clinic":"Williams Psychiatric Services",
    "Address":"243 Birch Rd, Mesa, AZ 85203",
    "City":"Mesa",
    "State":"AZ",
    "ZIP":"85203",
    "Email":"devon.williams@example.com",
    "Phone":"(480) 649-5083",
    "Specialties":"Anxiety",
    "Languages":"Chinese, English",
    "Rating":4.4,
    "latitude":33.413262,
    "longitude":-111.822986
  },
  {
    "DoctorID":21,
    "Name":"Devon Hernandez",
    "Clinic":"Hernandez Psychiatric Services",
    "Address":"211 Oak St, Glendale, AZ 85302",
    "City":"Glendale",
    "State":"AZ",
    "ZIP":"85302",
    "Email":"devon.hernandez@example.com",
    "Phone":"(480) 405-1523",
    "Specialties":"Eating Disorders",
    "Languages":"Spanish",
    "Rating":4.3,
    "latitude":33.515036,
    "longitude":-112.191561
  },
  {
    "DoctorID":22,
    "Name":"Taylor Martin",
    "Clinic":"Martin Therapy Group",
    "Address":"353 Willow Dr, Tempe, AZ 85281",
    "City":"Tempe",
    "State":"AZ",
    "ZIP":"85281",
    "Email":"taylor.martin@example.com",
    "Phone":"(480) 461-7329",
    "Specialties":"Schizophrenia",
    "Languages":"English",
    "Rating":4.6,
    "latitude":33.398692,
    "longitude":-111.982329
  },
  {
    "DoctorID":23,
    "Name":"Casey Jackson",
    "Clinic":"Jackson Psychiatric Services",
    "Address":"919 Elm St, Mesa, AZ 85201",
    "City":"Mesa",
    "State":"AZ",
    "ZIP":"85201",
    "Email":"casey.jackson@example.com",
    "Phone":"(480) 808-4322",
    "Specialties":"Schizophrenia",
    "Languages":"Hindi, Chinese",
    "Rating":4.8,
    "latitude":33.369313,
    "longitude":-111.870557
  },
  {
    "DoctorID":24,
    "Name":"Casey Rodriguez",
    "Clinic":"Rodriguez Therapy Group",
    "Address":"530 Pine St, Glendale, AZ 85301",
    "City":"Glendale",
    "State":"AZ",
    "ZIP":"85301",
    "Email":"casey.rodriguez@example.com",
    "Phone":"(480) 219-6814",
    "Specialties":"ADHD, PTSD",
    "Languages":"Spanish",
    "Rating":4.5,
    "latitude":33.544559,
    "longitude":-112.144835
  },
  {
    "DoctorID":25,
    "Name":"Reese Moore",
    "Clinic":"Moore Psychiatric Services",
    "Address":"877 Maple Ave, Phoenix, AZ 85009",
    "City":"Phoenix",
    "State":"AZ",
    "ZIP":"85009",
    "Email":"reese.moore@example.com",
    "Phone":"(480) 576-6480",
    "Specialties":"OCD",
    "Languages":"Spanish, Hindi",
    "Rating":4.1,
    "latitude":33.508751,
    "longitude":-112.083385
  },
  {
    "DoctorID":26,
    "Name":"Cameron Thompson",
    "Clinic":"Thompson Mental Health Clinic",
    "Address":"197 Willow Dr, Tempe, AZ 85283",
    "City":"Tempe",
    "State":"AZ",
    "ZIP":"85283",
    "Email":"cameron.thompson@example.com",
    "Phone":"(480) 370-3474",
    "Specialties":"Schizophrenia",
    "Languages":"French",
    "Rating":4.5,
    "latitude":33.426834,
    "longitude":-111.986595
  },
  {
    "DoctorID":27,
    "Name":"Taylor Johnson",
    "Clinic":"Johnson Wellness Center",
    "Address":"692 Pine St, Phoenix, AZ 85004",
    "City":"Phoenix",
    "State":"AZ",
    "ZIP":"85004",
    "Email":"taylor.johnson@example.com",
    "Phone":"(480) 414-3326",
    "Specialties":"Schizophrenia",
    "Languages":"Spanish",
    "Rating":3.9,
    "latitude":33.494862,
    "longitude":-112.242746
  },
  {
    "DoctorID":28,
    "Name":"Harper Hernandez",
    "Clinic":"Hernandez Psychiatric Services",
    "Address":"121 Spruce Ln, Phoenix, AZ 85009",
    "City":"Phoenix",
    "State":"AZ",
    "ZIP":"85009",
    "Email":"harper.hernandez@example.com",
    "Phone":"(480) 953-6074",
    "Specialties":"OCD, Depression",
    "Languages":"Hindi, Spanish",
    "Rating":4.9,
    "latitude":33.554521,
    "longitude":-112.244755
  },
  {
    "DoctorID":29,
    "Name":"Jordan Davis",
    "Clinic":"Davis Therapy Group",
    "Address":"575 Oak St, Tempe, AZ 85281",
    "City":"Tempe",
    "State":"AZ",
    "ZIP":"85281",
    "Email":"jordan.davis@example.com",
    "Phone":"(480) 464-9492",
    "Specialties":"Bipolar Disorder",
    "Languages":"French, Hindi",
    "Rating":4.7,
    "latitude":33.398478,
    "longitude":-111.908423
  },
  {
    "DoctorID":30,
    "Name":"Devon Thomas",
    "Clinic":"Thomas Mental Health Clinic",
    "Address":"419 Elm St, Mesa, AZ 85202",
    "City":"Mesa",
    "State":"AZ",
    "ZIP":"85202",
    "Email":"devon.thomas@example.com",
    "Phone":"(480) 336-5266",
    "Specialties":"OCD",
    "Languages":"Spanish",
    "Rating":3.8,
    "latitude":33.444173,
    "longitude":-111.787417
  },
  {
    "DoctorID":31,
    "Name":"Reagan Davis",
    "Clinic":"Davis Mental Health Clinic",
    "Address":"484 Oak St, Tempe, AZ 85282",
    "City":"Tempe",
    "State":"AZ",
    "ZIP":"85282",
    "Email":"reagan.davis@example.com",
    "Phone":"(480) 852-2422",
    "Specialties":"OCD, Substance Abuse",
    "Languages":"Spanish, French",
    "Rating":5.0,
    "latitude":33.468596,
    "longitude":-111.900168
  },
  {
    "DoctorID":32,
    "Name":"Alex Wilson",
    "Clinic":"Wilson Therapy Group",
    "Address":"190 Main St, Mesa, AZ 85203",
    "City":"Mesa",
    "State":"AZ",
    "ZIP":"85203",
    "Email":"alex.wilson@example.com",
    "Phone":"(480) 204-3956",
    "Specialties":"Anxiety, Autism Spectrum Disorder",
    "Languages":"Hindi",
    "Rating":4.2,
    "latitude":33.462573,
    "longitude":-111.792063
  },
  {
    "DoctorID":33,
    "Name":"Reese Miller",
    "Clinic":"Miller Wellness Center",
    "Address":"310 Main St, Phoenix, AZ 85006",
    "City":"Phoenix",
    "State":"AZ",
    "ZIP":"85006",
    "Email":"reese.miller@example.com",
    "Phone":"(480) 663-3640",
    "Specialties":"Eating Disorders, OCD",
    "Languages":"Spanish",
    "Rating":4.0,
    "latitude":33.409944,
    "longitude":-111.938008
  },
  {
    "DoctorID":34,
    "Name":"Alex Rodriguez",
    "Clinic":"Rodriguez Therapy Group",
    "Address":"463 Elm St, Glendale, AZ 85303",
    "City":"Glendale",
    "State":"AZ",
    "ZIP":"85303",
    "Email":"alex.rodriguez@example.com",
    "Phone":"(480) 608-5663",
    "Specialties":"Autism Spectrum Disorder",
    "Languages":"Hindi, English",
    "Rating":4.8,
    "latitude":33.564321,
    "longitude":-112.189129
  },
  {
    "DoctorID":35,
    "Name":"Kendall Davis",
    "Clinic":"Davis Mental Health Clinic",
    "Address":"219 Main St, Phoenix, AZ 85004",
    "City":"Phoenix",
    "State":"AZ",
    "ZIP":"85004",
    "Email":"kendall.davis@example.com",
    "Phone":"(480) 696-9691",
    "Specialties":"Substance Abuse",
    "Languages":"Hindi",
    "Rating":4.4,
    "latitude":33.325536,
    "longitude":-112.189645
  },
  {
    "DoctorID":36,
    "Name":"Cameron Taylor",
    "Clinic":"Taylor Psychiatric Services",
    "Address":"593 Main St, Mesa, AZ 85202",
    "City":"Mesa",
    "State":"AZ",
    "ZIP":"85202",
    "Email":"cameron.taylor@example.com",
    "Phone":"(480) 394-8141",
    "Specialties":"PTSD, Substance Abuse",
    "Languages":"Chinese",
    "Rating":4.7,
    "latitude":33.462086,
    "longitude":-111.894947
  },
  {
    "DoctorID":37,
    "Name":"Quinn Thompson",
    "Clinic":"Thompson Mental Health Clinic",
    "Address":"786 Elm St, Tempe, AZ 85281",
    "City":"Tempe",
    "State":"AZ",
    "ZIP":"85281",
    "Email":"quinn.thompson@example.com",
    "Phone":"(480) 605-4228",
    "Specialties":"Autism Spectrum Disorder",
    "Languages":"Spanish",
    "Rating":4.9,
    "latitude":33.469353,
    "longitude":-111.910209
  },
  {
    "DoctorID":38,
    "Name":"Devon Taylor",
    "Clinic":"Taylor Therapy Group",
    "Address":"694 Main St, Mesa, AZ 85202",
    "City":"Mesa",
    "State":"AZ",
    "ZIP":"85202",
    "Email":"devon.taylor@example.com",
    "Phone":"(480) 688-5179",
    "Specialties":"Substance Abuse, Bipolar Disorder",
    "Languages":"Chinese",
    "Rating":4.5,
    "latitude":33.418419,
    "longitude":-111.788184
  },
  {
    "DoctorID":39,
    "Name":"Avery Davis",
    "Clinic":"Davis Psychiatric Services",
    "Address":"177 Oak St, Phoenix, AZ 85001",
    "City":"Phoenix",
    "State":"AZ",
    "ZIP":"85001",
    "Email":"avery.davis@example.com",
    "Phone":"(480) 271-3184",
    "Specialties":"Anxiety, Autism Spectrum Disorder",
    "Languages":"French",
    "Rating":4.5,
    "latitude":33.354406,
    "longitude":-112.054524
  },
  {
    "DoctorID":40,
    "Name":"Blake Williams",
    "Clinic":"Williams Mental Health Clinic",
    "Address":"715 Spruce Ln, Tempe, AZ 85283",
    "City":"Tempe",
    "State":"AZ",
    "ZIP":"85283",
    "Email":"blake.williams@example.com",
    "Phone":"(480) 721-2064",
    "Specialties":"Bipolar Disorder, Substance Abuse",
    "Languages":"English, Chinese",
    "Rating":4.4,
    "latitude":33.444847,
    "longitude":-111.90835
  },
  {
    "DoctorID":41,
    "Name":"Skyler Rodriguez",
    "Clinic":"Rodriguez Therapy Group",
    "Address":"802 Pine St, Tempe, AZ 85283",
    "City":"Tempe",
    "State":"AZ",
    "ZIP":"85283",
    "Email":"skyler.rodriguez@example.com",
    "Phone":"(480) 762-4309",
    "Specialties":"PTSD",
    "Languages":"English",
    "Rating":3.9,
    "latitude":33.435751,
    "longitude":-111.960114
  },
  {
    "DoctorID":42,
    "Name":"Reese Jackson",
    "Clinic":"Jackson Therapy Group",
    "Address":"231 Birch Rd, Tempe, AZ 85282",
    "City":"Tempe",
    "State":"AZ",
    "ZIP":"85282",
    "Email":"reese.jackson@example.com",
    "Phone":"(480) 974-6629",
    "Specialties":"Autism Spectrum Disorder",
    "Languages":"English, French",
    "Rating":4.8,
    "latitude":33.395097,
    "longitude":-111.940914
  },
  {
    "DoctorID":43,
    "Name":"Kendall Miller",
    "Clinic":"Miller Wellness Center",
    "Address":"383 Willow Dr, Tempe, AZ 85283",
    "City":"Tempe",
    "State":"AZ",
    "ZIP":"85283",
    "Email":"kendall.miller@example.com",
    "Phone":"(480) 779-2827",
    "Specialties":"PTSD, Anxiety",
    "Languages":"Spanish, English",
    "Rating":3.8,
    "latitude":33.442758,
    "longitude":-111.927802
  },
  {
    "DoctorID":44,
    "Name":"Blake Martin",
    "Clinic":"Martin Wellness Center",
    "Address":"933 Pine St, Phoenix, AZ 85001",
    "City":"Phoenix",
    "State":"AZ",
    "ZIP":"85001",
    "Email":"blake.martin@example.com",
    "Phone":"(480) 860-5012",
    "Specialties":"Substance Abuse, PTSD",
    "Languages":"Chinese, Hindi",
    "Rating":3.8,
    "latitude":33.370801,
    "longitude":-112.254665
  },
  {
    "DoctorID":45,
    "Name":"Devon Thomas",
    "Clinic":"Thomas Mental Health Clinic",
    "Address":"914 Elm St, Mesa, AZ 85203",
    "City":"Mesa",
    "State":"AZ",
    "ZIP":"85203",
    "Email":"devon.thomas@example.com",
    "Phone":"(480) 622-7333",
    "Specialties":"Substance Abuse, ADHD",
    "Languages":"Hindi",
    "Rating":4.6,
    "latitude":33.37623,
    "longitude":-111.803811
  },
  {
    "DoctorID":46,
    "Name":"Peyton Garcia",
    "Clinic":"Garcia Mental Health Clinic",
    "Address":"611 Main St, Tempe, AZ 85282",
    "City":"Tempe",
    "State":"AZ",
    "ZIP":"85282",
    "Email":"peyton.garcia@example.com",
    "Phone":"(480) 888-2060",
    "Specialties":"Schizophrenia",
    "Languages":"English",
    "Rating":3.8,
    "latitude":33.408885,
    "longitude":-111.943334
  },
  {
    "DoctorID":47,
    "Name":"Drew Smith",
    "Clinic":"Smith Wellness Center",
    "Address":"744 Main St, Glendale, AZ 85303",
    "City":"Glendale",
    "State":"AZ",
    "ZIP":"85303",
    "Email":"drew.smith@example.com",
    "Phone":"(480) 394-6825",
    "Specialties":"Anxiety",
    "Languages":"Hindi",
    "Rating":4.5,
    "latitude":33.562229,
    "longitude":-112.1718
  },
  {
    "DoctorID":48,
    "Name":"Alex Thomas",
    "Clinic":"Thomas Therapy Group",
    "Address":"829 Oak St, Phoenix, AZ 85004",
    "City":"Phoenix",
    "State":"AZ",
    "ZIP":"85004",
    "Email":"alex.thomas@example.com",
    "Phone":"(480) 581-6238",
    "Specialties":"PTSD",
    "Languages":"Spanish",
    "Rating":4.3,
    "latitude":33.308118,
    "longitude":-111.946506
  },
  {
    "DoctorID":49,
    "Name":"Riley Smith",
    "Clinic":"Smith Wellness Center",
    "Address":"135 Walnut St, Mesa, AZ 85202",
    "City":"Mesa",
    "State":"AZ",
    "ZIP":"85202",
    "Email":"riley.smith@example.com",
    "Phone":"(480) 745-7362",
    "Specialties":"OCD",
    "Languages":"French",
    "Rating":4.2,
    "latitude":33.44525,
    "longitude":-111.833031
  },
  {
    "DoctorID":50,
    "Name":"Skyler Brown",
    "Clinic":"Brown Psychiatric Services",
    "Address":"376 Willow Dr, Mesa, AZ 85201",
    "City":"Mesa",
    "State":"AZ",
    "ZIP":"85201",
    "Email":"skyler.brown@example.com",
    "Phone":"(480) 611-3685",
    "Specialties":"PTSD",
    "Languages":"Hindi, Spanish",
    "Rating":4.9,
    "latitude":33.35561,
    "longitude":-111.897653
  },
  {
    "DoctorID":51,
    "Name":"Drew Wilson",
    "Clinic":"Wilson Mental Health Clinic",
    "Address":"199 Maple Ave, Phoenix, AZ 85009",
    "City":"Phoenix",
    "State":"AZ",
    "ZIP":"85009",
    "Email":"drew.wilson@example.com",
    "Phone":"(480) 747-8706",
    "Specialties":"PTSD, Schizophrenia",
    "Languages":"English, Hindi",
    "Rating":5.0,
    "latitude":33.571206,
    "longitude":-112.292335
  },
  {
    "DoctorID":52,
    "Name":"Logan Miller",
    "Clinic":"Miller Wellness Center",
    "Address":"471 Pine St, Glendale, AZ 85303",
    "City":"Glendale",
    "State":"AZ",
    "ZIP":"85303",
    "Email":"logan.miller@example.com",
    "Phone":"(480) 224-1270",
    "Specialties":"OCD, Depression",
    "Languages":"English, French",
    "Rating":4.9,
    "latitude":33.546115,
    "longitude":-112.132202
  },
  {
    "DoctorID":53,
    "Name":"Skyler Davis",
    "Clinic":"Davis Psychiatric Services",
    "Address":"911 Pine St, Phoenix, AZ 85004",
    "City":"Phoenix",
    "State":"AZ",
    "ZIP":"85004",
    "Email":"skyler.davis@example.com",
    "Phone":"(480) 777-3093",
    "Specialties":"Autism Spectrum Disorder",
    "Languages":"French, English",
    "Rating":4.3,
    "latitude":33.518912,
    "longitude":-112.066189
  },
  {
    "DoctorID":54,
    "Name":"Jamie Williams",
    "Clinic":"Williams Wellness Center",
    "Address":"294 Oak St, Glendale, AZ 85303",
    "City":"Glendale",
    "State":"AZ",
    "ZIP":"85303",
    "Email":"jamie.williams@example.com",
    "Phone":"(480) 253-1804",
    "Specialties":"Schizophrenia, Substance Abuse",
    "Languages":"Hindi",
    "Rating":4.7,
    "latitude":33.556522,
    "longitude":-112.22073
  },
  {
    "DoctorID":55,
    "Name":"Casey Anderson",
    "Clinic":"Anderson Therapy Group",
    "Address":"264 Main St, Phoenix, AZ 85006",
    "City":"Phoenix",
    "State":"AZ",
    "ZIP":"85006",
    "Email":"casey.anderson@example.com",
    "Phone":"(480) 968-3091",
    "Specialties":"Substance Abuse",
    "Languages":"Spanish",
    "Rating":4.5,
    "latitude":33.425974,
    "longitude":-112.118854
  },
  {
    "DoctorID":56,
    "Name":"Avery Martin",
    "Clinic":"Martin Therapy Group",
    "Address":"641 Pine St, Phoenix, AZ 85008",
    "City":"Phoenix",
    "State":"AZ",
    "ZIP":"85008",
    "Email":"avery.martin@example.com",
    "Phone":"(480) 881-1642",
    "Specialties":"Autism Spectrum Disorder",
    "Languages":"Chinese",
    "Rating":4.3,
    "latitude":33.418544,
    "longitude":-112.078615
  },
  {
    "DoctorID":57,
    "Name":"Riley Wilson",
    "Clinic":"Wilson Therapy Group",
    "Address":"896 Main St, Phoenix, AZ 85006",
    "City":"Phoenix",
    "State":"AZ",
    "ZIP":"85006",
    "Email":"riley.wilson@example.com",
    "Phone":"(480) 472-9235",
    "Specialties":"Depression, Bipolar Disorder",
    "Languages":"Chinese, English",
    "Rating":4.8,
    "latitude":33.370022,
    "longitude":-112.246686
  },
  {
    "DoctorID":58,
    "Name":"Blake Moore",
    "Clinic":"Moore Psychiatric Services",
    "Address":"806 Spruce Ln, Tempe, AZ 85281",
    "City":"Tempe",
    "State":"AZ",
    "ZIP":"85281",
    "Email":"blake.moore@example.com",
    "Phone":"(480) 641-3429",
    "Specialties":"OCD, Substance Abuse",
    "Languages":"Spanish, English",
    "Rating":5.0,
    "latitude":33.387412,
    "longitude":-111.932208
  },
  {
    "DoctorID":59,
    "Name":"Devon Anderson",
    "Clinic":"Anderson Psychiatric Services",
    "Address":"307 Willow Dr, Phoenix, AZ 85009",
    "City":"Phoenix",
    "State":"AZ",
    "ZIP":"85009",
    "Email":"devon.anderson@example.com",
    "Phone":"(480) 449-6180",
    "Specialties":"ADHD",
    "Languages":"Hindi",
    "Rating":4.7,
    "latitude":33.509172,
    "longitude":-112.137415
  },
  {
    "DoctorID":60,
    "Name":"Taylor Rodriguez",
    "Clinic":"Rodriguez Wellness Center",
    "Address":"916 Willow Dr, Mesa, AZ 85202",
    "City":"Mesa",
    "State":"AZ",
    "ZIP":"85202",
    "Email":"taylor.rodriguez@example.com",
    "Phone":"(480) 692-6336",
    "Specialties":"Bipolar Disorder",
    "Languages":"Chinese",
    "Rating":4.6,
    "latitude":33.438303,
    "longitude":-111.778009
  },
  {
    "DoctorID":61,
    "Name":"Reese Thomas",
    "Clinic":"Thomas Mental Health Clinic",
    "Address":"385 Pine St, Mesa, AZ 85202",
    "City":"Mesa",
    "State":"AZ",
    "ZIP":"85202",
    "Email":"reese.thomas@example.com",
    "Phone":"(480) 522-8836",
    "Specialties":"Substance Abuse",
    "Languages":"English, Hindi",
    "Rating":4.9,
    "latitude":33.458401,
    "longitude":-111.791457
  },
  {
    "DoctorID":62,
    "Name":"Reagan White",
    "Clinic":"White Mental Health Clinic",
    "Address":"682 Walnut St, Glendale, AZ 85303",
    "City":"Glendale",
    "State":"AZ",
    "ZIP":"85303",
    "Email":"reagan.white@example.com",
    "Phone":"(480) 555-2559",
    "Specialties":"Depression",
    "Languages":"Hindi, Chinese",
    "Rating":3.8,
    "latitude":33.521377,
    "longitude":-112.214431
  },
  {
    "DoctorID":63,
    "Name":"Quinn Garcia",
    "Clinic":"Garcia Psychiatric Services",
    "Address":"335 Birch Rd, Glendale, AZ 85302",
    "City":"Glendale",
    "State":"AZ",
    "ZIP":"85302",
    "Email":"quinn.garcia@example.com",
    "Phone":"(480) 635-6547",
    "Specialties":"Depression, Eating Disorders",
    "Languages":"English, French",
    "Rating":4.4,
    "latitude":33.56193,
    "longitude":-112.137574
  },
  {
    "DoctorID":64,
    "Name":"Morgan White",
    "Clinic":"White Wellness Center",
    "Address":"215 Maple Ave, Tempe, AZ 85283",
    "City":"Tempe",
    "State":"AZ",
    "ZIP":"85283",
    "Email":"morgan.white@example.com",
    "Phone":"(480) 802-9104",
    "Specialties":"ADHD, Substance Abuse",
    "Languages":"French",
    "Rating":3.9,
    "latitude":33.41392,
    "longitude":-111.962973
  },
  {
    "DoctorID":65,
    "Name":"Harper Miller",
    "Clinic":"Miller Therapy Group",
    "Address":"111 Main St, Tempe, AZ 85283",
    "City":"Tempe",
    "State":"AZ",
    "ZIP":"85283",
    "Email":"harper.miller@example.com",
    "Phone":"(480) 649-2084",
    "Specialties":"OCD",
    "Languages":"French, Chinese",
    "Rating":4.3,
    "latitude":33.400877,
    "longitude":-111.905951
  },
  {
    "DoctorID":66,
    "Name":"Avery Wilson",
    "Clinic":"Wilson Mental Health Clinic",
    "Address":"769 Elm St, Mesa, AZ 85201",
    "City":"Mesa",
    "State":"AZ",
    "ZIP":"85201",
    "Email":"avery.wilson@example.com",
    "Phone":"(480) 796-8531",
    "Specialties":"Autism Spectrum Disorder",
    "Languages":"Spanish, Hindi",
    "Rating":4.9,
    "latitude":33.36593,
    "longitude":-111.881139
  },
  {
    "DoctorID":67,
    "Name":"Skyler Martin",
    "Clinic":"Martin Psychiatric Services",
    "Address":"677 Willow Dr, Glendale, AZ 85302",
    "City":"Glendale",
    "State":"AZ",
    "ZIP":"85302",
    "Email":"skyler.martin@example.com",
    "Phone":"(480) 545-3268",
    "Specialties":"ADHD, Bipolar Disorder",
    "Languages":"English, Hindi",
    "Rating":4.7,
    "latitude":33.56587,
    "longitude":-112.242285
  },
  {
    "DoctorID":68,
    "Name":"Morgan Hernandez",
    "Clinic":"Hernandez Therapy Group",
    "Address":"337 Willow Dr, Mesa, AZ 85202",
    "City":"Mesa",
    "State":"AZ",
    "ZIP":"85202",
    "Email":"morgan.hernandez@example.com",
    "Phone":"(480) 256-2761",
    "Specialties":"ADHD, Schizophrenia",
    "Languages":"French, English",
    "Rating":4.8,
    "latitude":33.381008,
    "longitude":-111.886488
  },
  {
    "DoctorID":69,
    "Name":"Riley Martinez",
    "Clinic":"Martinez Therapy Group",
    "Address":"262 Elm St, Tempe, AZ 85282",
    "City":"Tempe",
    "State":"AZ",
    "ZIP":"85282",
    "Email":"riley.martinez@example.com",
    "Phone":"(480) 717-1103",
    "Specialties":"PTSD, Depression",
    "Languages":"Spanish",
    "Rating":4.6,
    "latitude":33.44325,
    "longitude":-111.914222
  },
  {
    "DoctorID":70,
    "Name":"Skyler Thomas",
    "Clinic":"Thomas Mental Health Clinic",
    "Address":"392 Elm St, Mesa, AZ 85201",
    "City":"Mesa",
    "State":"AZ",
    "ZIP":"85201",
    "Email":"skyler.thomas@example.com",
    "Phone":"(480) 571-9582",
    "Specialties":"Anxiety",
    "Languages":"Chinese, French",
    "Rating":4.8,
    "latitude":33.460539,
    "longitude":-111.85863
  },
  {
    "DoctorID":71,
    "Name":"Skyler Thomas",
    "Clinic":"Thomas Psychiatric Services",
    "Address":"828 Oak St, Tempe, AZ 85281",
    "City":"Tempe",
    "State":"AZ",
    "ZIP":"85281",
    "Email":"skyler.thomas@example.com",
    "Phone":"(480) 504-1479",
    "Specialties":"Substance Abuse",
    "Languages":"French, English",
    "Rating":4.1,
    "latitude":33.46507,
    "longitude":-111.947197
  },
  {
    "DoctorID":72,
    "Name":"Devon Moore",
    "Clinic":"Moore Psychiatric Services",
    "Address":"378 Pine St, Tempe, AZ 85282",
    "City":"Tempe",
    "State":"AZ",
    "ZIP":"85282",
    "Email":"devon.moore@example.com",
    "Phone":"(480) 504-2711",
    "Specialties":"Substance Abuse, OCD",
    "Languages":"French, English",
    "Rating":4.1,
    "latitude":33.39087,
    "longitude":-111.946892
  },
  {
    "DoctorID":73,
    "Name":"Logan Anderson",
    "Clinic":"Anderson Therapy Group",
    "Address":"913 Elm St, Phoenix, AZ 85009",
    "City":"Phoenix",
    "State":"AZ",
    "ZIP":"85009",
    "Email":"logan.anderson@example.com",
    "Phone":"(480) 359-9132",
    "Specialties":"ADHD, Bipolar Disorder",
    "Languages":"Spanish, French",
    "Rating":4.9,
    "latitude":33.519977,
    "longitude":-112.107271
  },
  {
    "DoctorID":74,
    "Name":"Peyton Brown",
    "Clinic":"Brown Mental Health Clinic",
    "Address":"917 Spruce Ln, Tempe, AZ 85282",
    "City":"Tempe",
    "State":"AZ",
    "ZIP":"85282",
    "Email":"peyton.brown@example.com",
    "Phone":"(480) 271-9134",
    "Specialties":"Bipolar Disorder",
    "Languages":"Spanish",
    "Rating":4.6,
    "latitude":33.45645,
    "longitude":-111.922705
  },
  {
    "DoctorID":75,
    "Name":"Jordan Jones",
    "Clinic":"Jones Psychiatric Services",
    "Address":"765 Cedar Dr, Tempe, AZ 85282",
    "City":"Tempe",
    "State":"AZ",
    "ZIP":"85282",
    "Email":"jordan.jones@example.com",
    "Phone":"(480) 648-9768",
    "Specialties":"Depression",
    "Languages":"Spanish, Hindi",
    "Rating":4.3,
    "latitude":33.414832,
    "longitude":-111.96108
  },
  {
    "DoctorID":76,
    "Name":"Casey White",
    "Clinic":"White Psychiatric Services",
    "Address":"116 Birch Rd, Mesa, AZ 85201",
    "City":"Mesa",
    "State":"AZ",
    "ZIP":"85201",
    "Email":"casey.white@example.com",
    "Phone":"(480) 364-5118",
    "Specialties":"ADHD",
    "Languages":"Spanish, English",
    "Rating":4.7,
    "latitude":33.377837,
    "longitude":-111.835252
  },
  {
    "DoctorID":77,
    "Name":"Harper Taylor",
    "Clinic":"Taylor Wellness Center",
    "Address":"802 Spruce Ln, Mesa, AZ 85203",
    "City":"Mesa",
    "State":"AZ",
    "ZIP":"85203",
    "Email":"harper.taylor@example.com",
    "Phone":"(480) 662-9791",
    "Specialties":"Substance Abuse, Autism Spectrum Disorder",
    "Languages":"Hindi, French",
    "Rating":3.8,
    "latitude":33.420983,
    "longitude":-111.813707
  },
  {
    "DoctorID":78,
    "Name":"Cameron Smith",
    "Clinic":"Smith Psychiatric Services",
    "Address":"794 Spruce Ln, Glendale, AZ 85301",
    "City":"Glendale",
    "State":"AZ",
    "ZIP":"85301",
    "Email":"cameron.smith@example.com",
    "Phone":"(480) 218-6818",
    "Specialties":"Anxiety",
    "Languages":"Hindi",
    "Rating":4.6,
    "latitude":33.518033,
    "longitude":-112.129779
  },
  {
    "DoctorID":79,
    "Name":"Casey Davis",
    "Clinic":"Davis Therapy Group",
    "Address":"991 Maple Ave, Mesa, AZ 85201",
    "City":"Mesa",
    "State":"AZ",
    "ZIP":"85201",
    "Email":"casey.davis@example.com",
    "Phone":"(480) 209-4650",
    "Specialties":"Eating Disorders",
    "Languages":"Hindi",
    "Rating":4.1,
    "latitude":33.370217,
    "longitude":-111.793946
  },
  {
    "DoctorID":80,
    "Name":"Harper Taylor",
    "Clinic":"Taylor Therapy Group",
    "Address":"158 Cedar Dr, Phoenix, AZ 85001",
    "City":"Phoenix",
    "State":"AZ",
    "ZIP":"85001",
    "Email":"harper.taylor@example.com",
    "Phone":"(480) 250-7757",
    "Specialties":"OCD, Eating Disorders",
    "Languages":"Hindi, Spanish",
    "Rating":3.8,
    "latitude":33.586799,
    "longitude":-112.127935
  },
  {
    "DoctorID":81,
    "Name":"Morgan Martinez",
    "Clinic":"Martinez Wellness Center",
    "Address":"299 Birch Rd, Mesa, AZ 85203",
    "City":"Mesa",
    "State":"AZ",
    "ZIP":"85203",
    "Email":"morgan.martinez@example.com",
    "Phone":"(480) 214-5509",
    "Specialties":"Eating Disorders, Bipolar Disorder",
    "Languages":"English, Chinese",
    "Rating":4.0,
    "latitude":33.436821,
    "longitude":-111.832297
  },
  {
    "DoctorID":82,
    "Name":"Riley Rodriguez",
    "Clinic":"Rodriguez Mental Health Clinic",
    "Address":"838 Willow Dr, Mesa, AZ 85201",
    "City":"Mesa",
    "State":"AZ",
    "ZIP":"85201",
    "Email":"riley.rodriguez@example.com",
    "Phone":"(480) 447-8212",
    "Specialties":"OCD",
    "Languages":"Spanish",
    "Rating":4.3,
    "latitude":33.391881,
    "longitude":-111.825652
  },
  {
    "DoctorID":83,
    "Name":"Skyler Taylor",
    "Clinic":"Taylor Wellness Center",
    "Address":"556 Walnut St, Glendale, AZ 85301",
    "City":"Glendale",
    "State":"AZ",
    "ZIP":"85301",
    "Email":"skyler.taylor@example.com",
    "Phone":"(480) 853-9023",
    "Specialties":"ADHD",
    "Languages":"French",
    "Rating":4.0,
    "latitude":33.565945,
    "longitude":-112.196505
  },
  {
    "DoctorID":84,
    "Name":"Devon Martin",
    "Clinic":"Martin Wellness Center",
    "Address":"702 Cedar Dr, Mesa, AZ 85203",
    "City":"Mesa",
    "State":"AZ",
    "ZIP":"85203",
    "Email":"devon.martin@example.com",
    "Phone":"(480) 273-9872",
    "Specialties":"OCD",
    "Languages":"English",
    "Rating":4.7,
    "latitude":33.468359,
    "longitude":-111.827656
  },
  {
    "DoctorID":85,
    "Name":"Riley Smith",
    "Clinic":"Smith Wellness Center",
    "Address":"243 Birch Rd, Tempe, AZ 85282",
    "City":"Tempe",
    "State":"AZ",
    "ZIP":"85282",
    "Email":"riley.smith@example.com",
    "Phone":"(480) 250-2137",
    "Specialties":"OCD, Substance Abuse",
    "Languages":"English",
    "Rating":4.5,
    "latitude":33.389196,
    "longitude":-111.916275
  },
  {
    "DoctorID":86,
    "Name":"Drew Thomas",
    "Clinic":"Thomas Psychiatric Services",
    "Address":"403 Cedar Dr, Mesa, AZ 85201",
    "City":"Mesa",
    "State":"AZ",
    "ZIP":"85201",
    "Email":"drew.thomas@example.com",
    "Phone":"(480) 845-9908",
    "Specialties":"Substance Abuse",
    "Languages":"Hindi, English",
    "Rating":3.8,
    "latitude":33.368062,
    "longitude":-111.880023
  },
  {
    "DoctorID":87,
    "Name":"Morgan Smith",
    "Clinic":"Smith Psychiatric Services",
    "Address":"282 Cedar Dr, Tempe, AZ 85283",
    "City":"Tempe",
    "State":"AZ",
    "ZIP":"85283",
    "Email":"morgan.smith@example.com",
    "Phone":"(480) 667-2512",
    "Specialties":"PTSD",
    "Languages":"Hindi",
    "Rating":5.0,
    "latitude":33.451923,
    "longitude":-111.938053
  },
  {
    "DoctorID":88,
    "Name":"Reese Taylor",
    "Clinic":"Taylor Psychiatric Services",
    "Address":"846 Spruce Ln, Glendale, AZ 85303",
    "City":"Glendale",
    "State":"AZ",
    "ZIP":"85303",
    "Email":"reese.taylor@example.com",
    "Phone":"(480) 472-8267",
    "Specialties":"Bipolar Disorder",
    "Languages":"Chinese, Spanish",
    "Rating":4.9,
    "latitude":33.517664,
    "longitude":-112.193274
  },
  {
    "DoctorID":89,
    "Name":"Morgan Miller",
    "Clinic":"Miller Mental Health Clinic",
    "Address":"933 Elm St, Mesa, AZ 85203",
    "City":"Mesa",
    "State":"AZ",
    "ZIP":"85203",
    "Email":"morgan.miller@example.com",
    "Phone":"(480) 653-9784",
    "Specialties":"Autism Spectrum Disorder, OCD",
    "Languages":"English",
    "Rating":4.7,
    "latitude":33.372142,
    "longitude":-111.840555
  },
  {
    "DoctorID":90,
    "Name":"Jamie Thompson",
    "Clinic":"Thompson Wellness Center",
    "Address":"602 Elm St, Tempe, AZ 85283",
    "City":"Tempe",
    "State":"AZ",
    "ZIP":"85283",
    "Email":"jamie.thompson@example.com",
    "Phone":"(480) 638-8406",
    "Specialties":"Eating Disorders",
    "Languages":"Chinese, French",
    "Rating":4.8,
    "latitude":33.390095,
    "longitude":-111.931282
  },
  {
    "DoctorID":91,
    "Name":"Avery Moore",
    "Clinic":"Moore Psychiatric Services",
    "Address":"694 Spruce Ln, Tempe, AZ 85282",
    "City":"Tempe",
    "State":"AZ",
    "ZIP":"85282",
    "Email":"avery.moore@example.com",
    "Phone":"(480) 913-3122",
    "Specialties":"Autism Spectrum Disorder, Schizophrenia",
    "Languages":"Chinese",
    "Rating":4.4,
    "latitude":33.459974,
    "longitude":-111.954613
  },
  {
    "DoctorID":92,
    "Name":"Kendall Thompson",
    "Clinic":"Thompson Wellness Center",
    "Address":"927 Willow Dr, Tempe, AZ 85283",
    "City":"Tempe",
    "State":"AZ",
    "ZIP":"85283",
    "Email":"kendall.thompson@example.com",
    "Phone":"(480) 250-4164",
    "Specialties":"Depression",
    "Languages":"Hindi, French",
    "Rating":4.9,
    "latitude":33.399363,
    "longitude":-111.989495
  },
  {
    "DoctorID":93,
    "Name":"Avery Thompson",
    "Clinic":"Thompson Mental Health Clinic",
    "Address":"149 Main St, Mesa, AZ 85202",
    "City":"Mesa",
    "State":"AZ",
    "ZIP":"85202",
    "Email":"avery.thompson@example.com",
    "Phone":"(480) 759-3783",
    "Specialties":"OCD, Eating Disorders",
    "Languages":"Hindi, French",
    "Rating":3.8,
    "latitude":33.421071,
    "longitude":-111.823413
  },
  {
    "DoctorID":94,
    "Name":"Jordan Thomas",
    "Clinic":"Thomas Wellness Center",
    "Address":"625 Elm St, Phoenix, AZ 85009",
    "City":"Phoenix",
    "State":"AZ",
    "ZIP":"85009",
    "Email":"jordan.thomas@example.com",
    "Phone":"(480) 745-1393",
    "Specialties":"PTSD",
    "Languages":"Hindi",
    "Rating":4.4,
    "latitude":33.574135,
    "longitude":-111.96462
  },
  {
    "DoctorID":95,
    "Name":"Skyler Moore",
    "Clinic":"Moore Psychiatric Services",
    "Address":"461 Elm St, Mesa, AZ 85202",
    "City":"Mesa",
    "State":"AZ",
    "ZIP":"85202",
    "Email":"skyler.moore@example.com",
    "Phone":"(480) 317-9344",
    "Specialties":"ADHD",
    "Languages":"French",
    "Rating":5.0,
    "latitude":33.381817,
    "longitude":-111.814764
  },
  {
    "DoctorID":96,
    "Name":"Riley Jackson",
    "Clinic":"Jackson Mental Health Clinic",
    "Address":"837 Oak St, Phoenix, AZ 85004",
    "City":"Phoenix",
    "State":"AZ",
    "ZIP":"85004",
    "Email":"riley.jackson@example.com",
    "Phone":"(480) 822-9535",
    "Specialties":"Anxiety, Eating Disorders",
    "Languages":"Chinese",
    "Rating":4.5,
    "latitude":33.472932,
    "longitude":-111.959513
  },
  {
    "DoctorID":97,
    "Name":"Avery Davis",
    "Clinic":"Davis Wellness Center",
    "Address":"433 Willow Dr, Tempe, AZ 85282",
    "City":"Tempe",
    "State":"AZ",
    "ZIP":"85282",
    "Email":"avery.davis@example.com",
    "Phone":"(480) 699-5307",
    "Specialties":"Bipolar Disorder, PTSD",
    "Languages":"Hindi, English",
    "Rating":4.0,
    "latitude":33.392377,
    "longitude":-111.989392
  },
  {
    "DoctorID":98,
    "Name":"Riley Miller",
    "Clinic":"Miller Therapy Group",
    "Address":"149 Maple Ave, Tempe, AZ 85281",
    "City":"Tempe",
    "State":"AZ",
    "ZIP":"85281",
    "Email":"riley.miller@example.com",
    "Phone":"(480) 844-2507",
    "Specialties":"Substance Abuse",
    "Languages":"Hindi, English",
    "Rating":3.9,
    "latitude":33.433527,
    "longitude":-111.92567
  },
  {
    "DoctorID":99,
    "Name":"Kendall Brown",
    "Clinic":"Brown Wellness Center",
    "Address":"741 Birch Rd, Glendale, AZ 85303",
    "City":"Glendale",
    "State":"AZ",
    "ZIP":"85303",
    "Email":"kendall.brown@example.com",
    "Phone":"(480) 289-3838",
    "Specialties":"Eating Disorders",
    "Languages":"English, Hindi",
    "Rating":4.6,
    "latitude":33.544932,
    "longitude":-112.129223
  },
  {
    "DoctorID":100,
    "Name":"Harper Garcia",
    "Clinic":"Garcia Wellness Center",
    "Address":"846 Willow Dr, Tempe, AZ 85283",
    "City":"Tempe",
    "State":"AZ",
    "ZIP":"85283",
    "Email":"harper.garcia@example.com",
    "Phone":"(480) 735-6331",
    "Specialties":"Schizophrenia",
    "Languages":"Chinese, Spanish",
    "Rating":4.4,
    "latitude":33.398474,
    "longitude":-111.928003
  }
]